{"type": "FeatureCollection", "features": [{"type": "Feature", "geometry": {"type": "Point", "coordinates": [128.18765805555557, 35.80078258333333]}, "properties": {"name": "가야", "address": "경상북도 고령군 덕곡면 노리 산39-5", "inst_year": 2022, "obs_count": 3, "total_range": 130.0, "measurements": [{"year": 2015, "total": 49478.0, "decl": -7.461, "incl": 51.574, "src": "구파일"}, {"year": 2022, "total": 49527.0, "decl": -7.666, "incl": 52.132, "src": "22_25"}, {"year": 2024, "total": 49608.0, "decl": -8.382, "incl": 51.809, "src": "22_25"}]}}, {"type": "Feature", "geometry": {"type": "Point", "coordinates": [126.47877522222223, 37.66612411111111]}, "properties": {"name": "강화", "address": "인천광역시 강화군 길상면 길직리 산 148-6", "inst_year": 2022, "obs_count": 5, "total_range": 586.2, "measurements": [{"year": 2013, "total": null, "decl": null, "incl": null, "src": "구파일"}, {"year": 2017, "total": null, "decl": null, "incl": null, "src": "구파일"}, {"year": 2018, "total": 50945.0, "decl": -7.588, "incl": 54.121, "src": "구파일"}, {"year": 2022, "total": 51454.6, "decl": -8.481, "incl": 54.813, "src": "22_25"}, {"year": 2024, "total": 51531.2, "decl": -8.66, "incl": 54.765, "src": "22_25"}]}}, {"type": "Feature", "geometry": {"type": "Point", "coordinates": [128.59286175, 34.870311083333334]}, "properties": {"name": "거제", "address": "경상남도 거제시 거제면 옥산리 산83-6", "inst_year": 2002, "obs_count": 4, "total_range": 303.0, "measurements": [{"year": 2014, "total": null, "decl": null, "incl": null, "src": "구파일"}, {"year": 2019, "total": 49092.0, "decl": -6.958, "incl": 50.485, "src": "구파일"}, {"year": 2022, "total": 49395.0, "decl": -7.819, "incl": 51.056, "src": "22_25"}, {"year": 2024, "total": 49335.5, "decl": -8.147, "incl": 51.199, "src": "22_25"}]}}, {"type": "Feature", "geometry": {"type": "Point", "coordinates": [126.91277777777778, 37.11472222222223]}, "properties": {"name": "남양", "address": "화성시 동탄면 장지리저수지 제방둑(수문에서50m)", "inst_year": null, "obs_count": 3, "total_range": null, "measurements": [{"year": 2011, "total": null, "decl": null, "incl": null, "src": "구파일"}, {"year": 2012, "total": null, "decl": null, "incl": null, "src": "구파일"}, {"year": 2016, "total": null, "decl": null, "incl": null, "src": "구파일"}]}}, {"type": "Feature", "geometry": {"type": "Point", "coordinates": [128.47361111111113, 35.43611111111111]}, "properties": {"name": "남지", "address": "창녕군 장마면 유리 1705-1 봉산지뚝", "inst_year": null, "obs_count": 2, "total_range": null, "measurements": [{"year": 2015, "total": null, "decl": null, "incl": null, "src": "구파일"}, {"year": 2019, "total": 49237.0, "decl": -7.167, "incl": 50.754, "src": "구파일"}]}}, {"type": "Feature", "geometry": {"type": "Point", "coordinates": [127.58622222222222, 36.72502777777778]}, "properties": {"name": "미원", "address": "충청북도 청주시 청원구 북이면 영하리 산13-1(미원409)", "inst_year": 1984, "obs_count": 4, "total_range": 354.3, "measurements": [{"year": 2013, "total": null, "decl": null, "incl": null, "src": "구파일"}, {"year": 2019, "total": 50355.0, "decl": -7.627, "incl": 52.805, "src": "구파일"}, {"year": 2022, "total": 50673.4, "decl": -9.082, "incl": 53.388, "src": "22_25"}, {"year": 2024, "total": 50709.3, "decl": -9.122, "incl": 53.412, "src": "22_25"}]}}, {"type": "Feature", "geometry": {"type": "Point", "coordinates": [128.39805555555554, 37.60944444444445]}, "properties": {"name": "봉평", "address": "평창군 봉평면 평촌2리 김병찬씨 뒷산", "inst_year": null, "obs_count": 2, "total_range": null, "measurements": [{"year": 2012, "total": null, "decl": null, "incl": null, "src": "구파일"}, {"year": 2015, "total": 50787.0, "decl": -7.737, "incl": 53.659, "src": "구파일"}]}}, {"type": "Feature", "geometry": {"type": "Point", "coordinates": [126.71613888888889, 35.58775]}, "properties": {"name": "부안", "address": "전라북도 부안군 줄포면 난산리 440-2 목중새마을(부안423)", "inst_year": 1997, "obs_count": 2, "total_range": 400.8, "measurements": [{"year": 2013, "total": 50207.0, "decl": -7.359, "incl": 51.774, "src": "구파일"}, {"year": 2023, "total": 50607.8, "decl": -7.183, "incl": 52.334, "src": "22_25"}]}}, {"type": "Feature", "geometry": {"type": "Point", "coordinates": [129.20322594444443, 37.384717083333335]}, "properties": {"name": "삼척", "address": "강원도 삼척시 근덕면 하맹방리 774-2, 초당저수지", "inst_year": 2022, "obs_count": 2, "total_range": 59.8, "measurements": [{"year": 2022, "total": 50587.6, "decl": -9.216, "incl": 54.238, "src": "22_25"}, {"year": 2024, "total": 50647.4, "decl": -8.224, "incl": 54.326, "src": "22_25"}]}}, {"type": "Feature", "geometry": {"type": "Point", "coordinates": [128.11048069444445, 36.35528841666667]}, "properties": {"name": "상주", "address": "경상북도 상주시 청리면 율리 436-2 밤깟마을(상주23)", "inst_year": 1995, "obs_count": 2, "total_range": 314.4, "measurements": [{"year": 2013, "total": 50224.0, "decl": -7.448, "incl": 52.179, "src": "구파일"}, {"year": 2023, "total": 50538.4, "decl": -8.124, "incl": 52.757, "src": "22_25"}]}}, {"type": "Feature", "geometry": {"type": "Point", "coordinates": [126.91277777777778, 37.11472222222223]}, "properties": {"name": "서산", "address": "서산시 잠홍동 잠홍저수지(삼각점457로대체)", "inst_year": null, "obs_count": 3, "total_range": null, "measurements": [{"year": 2013, "total": null, "decl": null, "incl": null, "src": "구파일"}, {"year": 2017, "total": null, "decl": null, "incl": null, "src": "구파일"}, {"year": 2018, "total": null, "decl": -7.489, "incl": 53.303, "src": "구파일"}]}}, {"type": "Feature", "geometry": {"type": "Point", "coordinates": [128.33305555555555, 38.00972222222222]}, "properties": {"name": "설악", "address": "인제군 상남면 하남리610-57 (의식동저수지가운데)", "inst_year": null, "obs_count": 2, "total_range": null, "measurements": [{"year": 2011, "total": null, "decl": null, "incl": null, "src": "구파일"}, {"year": 2012, "total": 50610.0, "decl": -7.812, "incl": 54.042, "src": "구파일"}]}}, {"type": "Feature", "geometry": {"type": "Point", "coordinates": [126.89416197222224, 33.524479916666664]}, "properties": {"name": "성산", "address": "제주특별자치도 제주시 구좌읍 하도리425", "inst_year": 2006, "obs_count": 4, "total_range": 98.1, "measurements": [{"year": 2014, "total": null, "decl": null, "incl": null, "src": "구파일"}, {"year": 2019, "total": null, "decl": null, "incl": null, "src": "구파일"}, {"year": 2023, "total": 48909.9, "decl": -8.531, "incl": 50.038, "src": "22_25"}, {"year": 2025, "total": 49008.0, "decl": -8.658, "incl": 50.121, "src": "22_25"}]}}, {"type": "Feature", "geometry": {"type": "Point", "coordinates": [127.30497222222222, 34.78708333333333]}, "properties": {"name": "순천", "address": "전라남도 고흥군 동강면 마륜리 산67-3 원동저수지", "inst_year": 2009, "obs_count": 3, "total_range": 480.7, "measurements": [{"year": 2013, "total": 49210.0, "decl": -7.206, "incl": 50.635, "src": "구파일"}, {"year": 2023, "total": 49690.7, "decl": -8.334, "incl": 51.313, "src": "22_25"}, {"year": 2025, "total": 49618.9, "decl": -8.44, "incl": 51.114, "src": "22_25"}]}}, {"type": "Feature", "geometry": {"type": "Point", "coordinates": [129.18386111111113, 35.67366666666666]}, "properties": {"name": "양산", "address": "울산광역시 울주군 두서면 미호리 산59-2", "inst_year": 2005, "obs_count": 4, "total_range": 188.4, "measurements": [{"year": 2011, "total": null, "decl": null, "incl": null, "src": "구파일"}, {"year": 2012, "total": null, "decl": null, "incl": null, "src": "구파일"}, {"year": 2016, "total": 49452.0, "decl": -7.906, "incl": 50.926, "src": "구파일"}, {"year": 2022, "total": 49640.4, "decl": -8.641, "incl": 51.669, "src": "22_25"}]}}, {"type": "Feature", "geometry": {"type": "Point", "coordinates": [127.58998836111111, 37.445381]}, "properties": {"name": "여주", "address": "경기도 양평군 개군면 내리 산12", "inst_year": 2023, "obs_count": 5, "total_range": 495.0, "measurements": [{"year": 2011, "total": null, "decl": null, "incl": null, "src": "구파일"}, {"year": 2012, "total": null, "decl": null, "incl": null, "src": "구파일"}, {"year": 2016, "total": 50680.0, "decl": -7.643, "incl": 53.362, "src": "구파일"}, {"year": 2023, "total": 51138.0, "decl": -9.34, "incl": 54.433, "src": "22_25"}, {"year": 2025, "total": 51175.0, "decl": -9.267, "incl": 54.424, "src": "22_25"}]}}, {"type": "Feature", "geometry": {"type": "Point", "coordinates": [126.36194444444443, 35.16972222222222]}, "properties": {"name": "와도", "address": "영광군 염산면 옥실리1475 옥실저수지(옥슬제)", "inst_year": null, "obs_count": 4, "total_range": null, "measurements": [{"year": 2011, "total": null, "decl": null, "incl": null, "src": "구파일"}, {"year": 2012, "total": null, "decl": null, "incl": null, "src": "구파일"}, {"year": 2017, "total": null, "decl": null, "incl": null, "src": "구파일"}, {"year": 2018, "total": 49962.0, "decl": -7.316, "incl": 51.044, "src": "구파일"}]}}, {"type": "Feature", "geometry": {"type": "Point", "coordinates": [127.69973402777778, 36.07088027777778]}, "properties": {"name": "이원", "address": "충청북도 학산면 아암리 17-1, 여의치저수지", "inst_year": 2005, "obs_count": 4, "total_range": 318.8, "measurements": [{"year": 2014, "total": null, "decl": null, "incl": null, "src": "구파일"}, {"year": 2019, "total": 50052.6, "decl": -7.408, "incl": 51.997, "src": "구파일"}, {"year": 2022, "total": 50371.4, "decl": -8.338, "incl": 52.94, "src": "22_25"}, {"year": 2024, "total": 50286.9, "decl": -8.419, "incl": 52.969, "src": "22_25"}]}}, {"type": "Feature", "geometry": {"type": "Point", "coordinates": [128.85305555555556, 37.41083333333333]}, "properties": {"name": "임계", "address": "삼척시 근덕면 하맹방리 초당저수지뚝 가운데", "inst_year": null, "obs_count": 3, "total_range": null, "measurements": [{"year": 2011, "total": null, "decl": null, "incl": null, "src": "구파일"}, {"year": 2012, "total": null, "decl": null, "incl": null, "src": "구파일"}, {"year": 2016, "total": 50670.0, "decl": -7.665, "incl": 52.883, "src": "구파일"}]}}, {"type": "Feature", "geometry": {"type": "Point", "coordinates": [128.21138888888888, 37.074444444444445]}, "properties": {"name": "제천", "address": "제천시 백운면 방학리 백마저수지뚝 가운데", "inst_year": null, "obs_count": 3, "total_range": null, "measurements": [{"year": 2011, "total": null, "decl": null, "incl": null, "src": "구파일"}, {"year": 2012, "total": null, "decl": null, "incl": null, "src": "구파일"}, {"year": 2015, "total": 50410.0, "decl": -7.738, "incl": 53.223, "src": "구파일"}]}}, {"type": "Feature", "geometry": {"type": "Point", "coordinates": [129.07555555555555, 36.36972222222222]}, "properties": {"name": "청송", "address": "청송군 부동면 지리523(마뜰못)", "inst_year": null, "obs_count": 3, "total_range": null, "measurements": [{"year": 2014, "total": null, "decl": null, "incl": null, "src": "구파일"}, {"year": 2017, "total": null, "decl": null, "incl": null, "src": "구파일"}, {"year": 2018, "total": 49628.0, "decl": -7.726, "incl": 51.963, "src": "구파일"}]}}, {"type": "Feature", "geometry": {"type": "Point", "coordinates": [127.00805555555556, 36.4375]}, "properties": {"name": "청양", "address": "공주시 우성면 용봉리 우목저수지", "inst_year": null, "obs_count": 3, "total_range": null, "measurements": [{"year": 2013, "total": null, "decl": null, "incl": null, "src": "구파일"}, {"year": 2017, "total": null, "decl": null, "incl": null, "src": "구파일"}, {"year": 2018, "total": 50296.7, "decl": -7.519, "incl": 52.532, "src": "구파일"}]}}, {"type": "Feature", "geometry": {"type": "Point", "coordinates": [128.85944444444445, 36.92972222222222]}, "properties": {"name": "춘양", "address": "봉화군 명호면 도천리 기둑실지뚝 가운데", "inst_year": null, "obs_count": 3, "total_range": null, "measurements": [{"year": 2011, "total": null, "decl": null, "incl": null, "src": "구파일"}, {"year": 2012, "total": null, "decl": null, "incl": null, "src": "구파일"}, {"year": 2015, "total": 50226.0, "decl": -7.937, "incl": 52.829, "src": "구파일"}]}}, {"type": "Feature", "geometry": {"type": "Point", "coordinates": [127.13462836111111, 37.99090344444445]}, "properties": {"name": "포천", "address": "경기도 연천군 청산면 대전리 산83", "inst_year": 2023, "obs_count": 3, "total_range": 383.3, "measurements": [{"year": 2014, "total": 51112.0, "decl": -7.97, "incl": 54.265, "src": "구파일"}, {"year": 2023, "total": 51424.4, "decl": -9.507, "incl": 55.013, "src": "22_25"}, {"year": 2025, "total": 51495.3, "decl": -9.245, "incl": 55.043, "src": "22_25"}]}}, {"type": "Feature", "geometry": {"type": "Point", "coordinates": [127.62296883333333, 35.54250855555556]}, "properties": {"name": "함양", "address": "경남 함양군 백전면 구산리 166 구산제(구산저수지)", "inst_year": 2006, "obs_count": 2, "total_range": 309.2, "measurements": [{"year": 2013, "total": 49344.0, "decl": -6.967, "incl": 51.349, "src": "구파일"}, {"year": 2023, "total": 49653.2, "decl": -8.797, "incl": 51.995, "src": "22_25"}]}}, {"type": "Feature", "geometry": {"type": "Point", "coordinates": [127.68666666666667, 38.11555555555556]}, "properties": {"name": "화천", "address": "화천군 화천읍 상리 산6", "inst_year": null, "obs_count": 3, "total_range": null, "measurements": [{"year": 2012, "total": null, "decl": null, "incl": null, "src": "구파일"}, {"year": 2017, "total": null, "decl": null, "incl": null, "src": "구파일"}, {"year": 2018, "total": 50950.0, "decl": -7.763, "incl": 54.372, "src": "구파일"}]}}]}